{"type":"FeatureCollection", "features": [
    {"type":"Feature","geometry":{"type":"Point","coordinates":[110.03736734000006,40.05345532000007,0,-1.7976931348623157e+308]},"properties":{"OID_":0,"Name":"气象站","FolderPath":"OvitalMap_20220925_230719/内蒙2209","SymbolID":0,"AltMode":-1,"Base":0,"TimeSpan":0,"TimeStamp":0,"BeginTime":"","EndTime":"","Snippet":"","PopupInfo":"","HasLabel":-1,"LabelID":0}},
    {"type":"Feature","geometry":{"type":"Point","coordinates":[110.03586531000008,40.053980900000056,0,-1.7976931348623157e+308]},"properties":{"OID_":0,"Name":"植物样方","FolderPath":"OvitalMap_20220925_230719/内蒙2209","SymbolID":0,"AltMode":-1,"Base":0,"TimeSpan":0,"TimeStamp":0,"BeginTime":"","EndTime":"","Snippet":"","PopupInfo":"","HasLabel":-1,"LabelID":0}},
    {"type":"Feature","geometry":{"type":"Point","coordinates":[110.03488898000006,40.054785700000025,0,-1.7976931348623157e+308]},"properties":{"OID_":0,"Name":"茎干叶流","FolderPath":"OvitalMap_20220925_230719/内蒙2209","SymbolID":0,"AltMode":-1,"Base":0,"TimeSpan":0,"TimeStamp":0,"BeginTime":"","EndTime":"","Snippet":"","PopupInfo":"","HasLabel":-1,"LabelID":0}},
    {"type":"Feature","geometry":{"type":"Point","coordinates":[110.03472805000007,40.05468715000006,0,-1.7976931348623157e+308]},"properties":{"OID_":0,"Name":"土壤蒸发1.2m/","FolderPath":"OvitalMap_20220925_230719/内蒙2209/土壤蒸发1.2m","SymbolID":0,"AltMode":-1,"Base":0,"TimeSpan":0,"TimeStamp":0,"BeginTime":"","EndTime":"","Snippet":"","PopupInfo":"","HasLabel":-1,"LabelID":0}},
    {"type":"Feature","geometry":{"type":"Point","coordinates":[110.03469586000006,40.05466252000008,0,-1.7976931348623157e+308]},"properties":{"OID_":0,"Name":"沙柳冠层截流","FolderPath":"OvitalMap_20220925_230719/内蒙2209","SymbolID":0,"AltMode":-1,"Base":0,"TimeSpan":0,"TimeStamp":0,"BeginTime":"","EndTime":"","Snippet":"","PopupInfo":"","HasLabel":-1,"LabelID":0}},
    {"type":"Feature","geometry":{"type":"Point","coordinates":[110.03391266000006,40.05448904000008,0,-1.7976931348623157e+308]},"properties":{"OID_":0,"Name":"径流小区","FolderPath":"OvitalMap_20220925_230719/内蒙2209","SymbolID":0,"AltMode":-1,"Base":0,"TimeSpan":0,"TimeStamp":0,"BeginTime":"","EndTime":"","Snippet":"","PopupInfo":"","HasLabel":-1,"LabelID":0}},
{"type":"Feature","geometry":{"type":"Point","coordinates":[110.03268018000006,40.05449160000006,0,-1.7976931348623157e+308]},"properties":{"OID_":0,"Name":"树干叶流","FolderPath":"OvitalMap_20220925_230719/内蒙2209","SymbolID":0,"AltMode":-1,"Base":0,"TimeSpan":0,"TimeStamp":0,"BeginTime":"","EndTime":"","Snippet":"","PopupInfo":"","HasLabel":-1,"LabelID":0}},
{"type":"Feature","geometry":{"type":"Point","coordinates":[110.03292561000006,40.054375090000065,0,-1.7976931348623157e+308]},"properties":{"OID_":0,"Name":"油松冠层截流","FolderPath":"OvitalMap_20220925_230719/内蒙2209","SymbolID":0,"AltMode":-1,"Base":0,"TimeSpan":0,"TimeStamp":0,"BeginTime":"","EndTime":"","Snippet":"","PopupInfo":"","HasLabel":-1,"LabelID":0}},
{"type":"Feature","geometry":{"type":"Point","coordinates":[110.03307581000007,40.05442436000004,0,-1.7976931348623157e+308]},"properties":{"OID_":0,"Name":"柠条冠层截流","FolderPath":"OvitalMap_20220925_230719/内蒙2209","SymbolID":0,"AltMode":-1,"Base":0,"TimeSpan":0,"TimeStamp":0,"BeginTime":"","EndTime":"","Snippet":"","PopupInfo":"","HasLabel":-1,"LabelID":0}},
{"type":"Feature","geometry":{"type":"Point","coordinates":[110.03419697000004,40.05426833000007,0,-1.7976931348623157e+308]},"properties":{"OID_":0,"Name":"沙柳径流小区","FolderPath":"OvitalMap_20220925_230719/内蒙2209","SymbolID":0,"AltMode":-1,"Base":0,"TimeSpan":0,"TimeStamp":0,"BeginTime":"","EndTime":"","Snippet":"","PopupInfo":"","HasLabel":-1,"LabelID":0}},
{"type":"Feature","geometry":{"type":"Point","coordinates":[110.03456846000006,40.054391520000024,0,-1.7976931348623157e+308]},"properties":{"OID_":0,"Name":"雨量计","FolderPath":"OvitalMap_20220925_230719/内蒙2209","SymbolID":0,"AltMode":-1,"Base":0,"TimeSpan":0,"TimeStamp":0,"BeginTime":"","EndTime":"","Snippet":"","PopupInfo":"","HasLabel":-1,"LabelID":0}},
{"type":"Feature","geometry":{"type":"Point","coordinates":[110.03628105000007,40.05310219000006,0,-1.7976931348623157e+308]},"properties":{"OID_":0,"Name":"土壤蒸发","FolderPath":"OvitalMap_20220925_230719/内蒙2209","SymbolID":0,"AltMode":-1,"Base":0,"TimeSpan":0,"TimeStamp":0,"BeginTime":"","EndTime":"","Snippet":"","PopupInfo":"","HasLabel":-1,"LabelID":0}},
{"type":"Feature","geometry":{"type":"Point","coordinates":[110.03533423000005,40.04899382000008,0,-1.7976931348623157e+308]},"properties":{"OID_":0,"Name":"径流小区","FolderPath":"OvitalMap_20220925_230719/内蒙2209","SymbolID":0,"AltMode":-1,"Base":0,"TimeSpan":0,"TimeStamp":0,"BeginTime":"","EndTime":"","Snippet":"","PopupInfo":"","HasLabel":-1,"LabelID":0}},
{"type":"Feature","geometry":{"type":"Point","coordinates":[110.60095310000008,39.796337150000056,0,-1.7976931348623157e+308]},"properties":{"OID_":0,"Name":"径流小区陡坡","FolderPath":"OvitalMap_20220925_230719/内蒙2209","SymbolID":0,"AltMode":-1,"Base":0,"TimeSpan":0,"TimeStamp":0,"BeginTime":"","EndTime":"","Snippet":"","PopupInfo":"","HasLabel":-1,"LabelID":0}},
{"type":"Feature","geometry":{"type":"Point","coordinates":[110.60095310000008,39.796337150000056,0,-1.7976931348623157e+308]},"properties":{"OID_":0,"Name":"径流小区陡坡","FolderPath":"OvitalMap_20220925_230719/内蒙2209","SymbolID":0,"AltMode":-1,"Base":0,"TimeSpan":0,"TimeStamp":0,"BeginTime":"","EndTime":"","Snippet":"","PopupInfo":"","HasLabel":-1,"LabelID":0}},
{"type":"Feature","geometry":{"type":"Point","coordinates":[111.20794773000006,41.35281309000004,0,-1.7976931348623157e+308]},"properties":{"OID_":0,"Name":"短花针茅草地土壤呼吸通量过程观测","FolderPath":"OvitalMap_20220925_230719/内蒙2209","SymbolID":0,"AltMode":-1,"Base":0,"TimeSpan":0,"TimeStamp":0,"BeginTime":"","EndTime":"","Snippet":"","PopupInfo":"","HasLabel":-1,"LabelID":0}},
{"type":"Feature","geometry":{"type":"Point","coordinates":[111.20747566000006,41.35342516000003,0,-1.7976931348623157e+308]},"properties":{"OID_":0,"Name":"自然修复草地土壤水蚀过程观测","FolderPath":"OvitalMap_20220925_230719/内蒙2209","SymbolID":0,"AltMode":-1,"Base":0,"TimeSpan":0,"TimeStamp":0,"BeginTime":"","EndTime":"","Snippet":"","PopupInfo":"","HasLabel":-1,"LabelID":0}},
{"type":"Feature","geometry":{"type":"Point","coordinates":[111.20756149000005,41.35352180000007,0,-1.7976931348623157e+308]},"properties":{"OID_":0,"Name":"径流小区","FolderPath":"OvitalMap_20220925_230719/内蒙2209","SymbolID":0,"AltMode":-1,"Base":0,"TimeSpan":0,"TimeStamp":0,"BeginTime":"","EndTime":"","Snippet":"","PopupInfo":"","HasLabel":-1,"LabelID":0}},
{"type":"Feature","geometry":{"type":"Point","coordinates":[111.20791018000006,41.35394461000004,0,-1.7976931348623157e+308]},"properties":{"OID_":0,"Name":"蓄水池","FolderPath":"OvitalMap_20220925_230719/内蒙2209","SymbolID":0,"AltMode":-1,"Base":0,"TimeSpan":0,"TimeStamp":0,"BeginTime":"","EndTime":"","Snippet":"","PopupInfo":"","HasLabel":-1,"LabelID":0}},
{"type":"Feature","geometry":{"type":"Point","coordinates":[111.20786726000006,41.35421038000004,0,-1.7976931348623157e+308]},"properties":{"OID_":0,"Name":"小流域降雨产流产沙过程控制测量站","FolderPath":"OvitalMap_20220925_230719/内蒙2209","SymbolID":0,"AltMode":-1,"Base":0,"TimeSpan":0,"TimeStamp":0,"BeginTime":"","EndTime":"","Snippet":"","PopupInfo":"","HasLabel":-1,"LabelID":0}},
{"type":"Feature","geometry":{"type":"Point","coordinates":[111.20699286000007,41.35373522000003,0,-1.7976931348623157e+308]},"properties":{"OID_":0,"Name":"风沙通量过程观测2017","FolderPath":"OvitalMap_20220925_230719/内蒙2209","SymbolID":0,"AltMode":-1,"Base":0,"TimeSpan":0,"TimeStamp":0,"BeginTime":"","EndTime":"","Snippet":"","PopupInfo":"","HasLabel":-1,"LabelID":0}},
{"type":"Feature","geometry":{"type":"Point","coordinates":[111.20700359000006,41.35331644000007,0,-1.7976931348623157e+308]},"properties":{"OID_":0,"Name":"区域土壤水分动态变化观测2019","FolderPath":"OvitalMap_20220925_230719/内蒙2209","SymbolID":0,"AltMode":-1,"Base":0,"TimeSpan":0,"TimeStamp":0,"BeginTime":"","EndTime":"","Snippet":"","PopupInfo":"","HasLabel":-1,"LabelID":0}},
{"type":"Feature","geometry":{"type":"Point","coordinates":[111.20697677000004,41.35320369000004,0,-1.7976931348623157e+308]},"properties":{"OID_":0,"Name":"区域雪深动态变化观测2019","FolderPath":"OvitalMap_20220925_230719/内蒙2209","SymbolID":0,"AltMode":-1,"Base":0,"TimeSpan":0,"TimeStamp":0,"BeginTime":"","EndTime":"","Snippet":"","PopupInfo":"","HasLabel":-1,"LabelID":0}},
{"type":"Feature","geometry":{"type":"Point","coordinates":[111.20728254000005,41.35289362000003,0,-1.7976931348623157e+308]},"properties":{"OID_":0,"Name":"短花针茅草地冠层碳水通量过程观测2008","FolderPath":"OvitalMap_20220925_230719/内蒙2209","SymbolID":0,"AltMode":-1,"Base":0,"TimeSpan":0,"TimeStamp":0,"BeginTime":"","EndTime":"","Snippet":"","PopupInfo":"","HasLabel":-1,"LabelID":0}},
{"type":"Feature","geometry":{"type":"Point","coordinates":[111.20739520000006,41.35245872000007,0,-1.7976931348623157e+308]},"properties":{"OID_":0,"Name":"短花针茅群落蒸散发过程观测2008","FolderPath":"OvitalMap_20220925_230719/内蒙2209","SymbolID":0,"AltMode":-1,"Base":0,"TimeSpan":0,"TimeStamp":0,"BeginTime":"","EndTime":"","Snippet":"","PopupInfo":"","HasLabel":-1,"LabelID":0}},
{"type":"Feature","geometry":{"type":"Point","coordinates":[111.20787263000005,41.35085602000004,0,-1.7976931348623157e+308]},"properties":{"OID_":0,"Name":"燕麦滴灌试验田","FolderPath":"OvitalMap_20220925_230719/内蒙2209","SymbolID":0,"AltMode":-1,"Base":0,"TimeSpan":0,"TimeStamp":0,"BeginTime":"","EndTime":"","Snippet":"","PopupInfo":"","HasLabel":-1,"LabelID":0}},
{"type":"Feature","geometry":{"type":"Point","coordinates":[111.20767415000006,41.35057010000003,0,-1.7976931348623157e+308]},"properties":{"OID_":0,"Name":"人工牧草地面滴灌","FolderPath":"OvitalMap_20220925_230719/内蒙2209","SymbolID":0,"AltMode":-1,"Base":0,"TimeSpan":0,"TimeStamp":0,"BeginTime":"","EndTime":"","Snippet":"","PopupInfo":"","HasLabel":-1,"LabelID":0}},
{"type":"Feature","geometry":{"type":"Point","coordinates":[111.20771706000005,41.35036070000007,0,-1.7976931348623157e+308]},"properties":{"OID_":0,"Name":"豆禾混播（玉米）","FolderPath":"OvitalMap_20220925_230719/内蒙2209","SymbolID":0,"AltMode":-1,"Base":0,"TimeSpan":0,"TimeStamp":0,"BeginTime":"","EndTime":"","Snippet":"","PopupInfo":"","HasLabel":-1,"LabelID":0}},
{"type":"Feature","geometry":{"type":"Point","coordinates":[111.20726377000005,41.35002747000004,0,-1.7976931348623157e+308]},"properties":{"OID_":0,"Name":"人工草地撂荒","FolderPath":"OvitalMap_20220925_230719/内蒙2209","SymbolID":0,"AltMode":-1,"Base":0,"TimeSpan":0,"TimeStamp":0,"BeginTime":"","EndTime":"","Snippet":"","PopupInfo":"","HasLabel":-1,"LabelID":0}},
{"type":"Feature","geometry":{"type":"Point","coordinates":[111.20718062000009,41.35067178000003,0,-1.7976931348623157e+308]},"properties":{"OID_":0,"Name":"马铃薯","FolderPath":"OvitalMap_20220925_230719/内蒙2209","SymbolID":0,"AltMode":-1,"Base":0,"TimeSpan":0,"TimeStamp":0,"BeginTime":"","EndTime":"","Snippet":"","PopupInfo":"","HasLabel":-1,"LabelID":0}},
{"type":"Feature","geometry":{"type":"Point","coordinates":[111.20670855000009,41.35086508000006,0,-1.7976931348623157e+308]},"properties":{"OID_":0,"Name":"苜蓿","FolderPath":"OvitalMap_20220925_230719/内蒙2209","SymbolID":0,"AltMode":-1,"Base":0,"TimeSpan":0,"TimeStamp":0,"BeginTime":"","EndTime":"","Snippet":"","PopupInfo":"","HasLabel":-1,"LabelID":0}},
{"type":"Feature","geometry":{"type":"Point","coordinates":[111.20663747000009,41.35095065000007,0,-1.7976931348623157e+308]},"properties":{"OID_":0,"Name":"地下水动态变化观测2018","FolderPath":"OvitalMap_20220925_230719/内蒙2209","SymbolID":0,"AltMode":-1,"Base":0,"TimeSpan":0,"TimeStamp":0,"BeginTime":"","EndTime":"","Snippet":"","PopupInfo":"","HasLabel":-1,"LabelID":0}},
{"type":"Feature","geometry":{"type":"Point","coordinates":[111.20670050000007,41.350987900000064,0,-1.7976931348623157e+308]},"properties":{"OID_":0,"Name":"农牧交错带典型作物蒸散发过程观测2014","FolderPath":"OvitalMap_20220925_230719/内蒙2209","SymbolID":0,"AltMode":-1,"Base":0,"TimeSpan":0,"TimeStamp":0,"BeginTime":"","EndTime":"","Snippet":"","PopupInfo":"","HasLabel":-1,"LabelID":0}},
{"type":"Feature","geometry":{"type":"Point","coordinates":[111.20655835000008,41.35102817000006,0,-1.7976931348623157e+308]},"properties":{"OID_":0,"Name":"多年生牧草地下滴灌技术","FolderPath":"OvitalMap_20220925_230719/内蒙2209","SymbolID":0,"AltMode":-1,"Base":0,"TimeSpan":0,"TimeStamp":0,"BeginTime":"","EndTime":"","Snippet":"","PopupInfo":"","HasLabel":-1,"LabelID":0}},
{"type":"Feature","geometry":{"type":"Point","coordinates":[111.20645106000006,41.35089025000008,0,-1.7976931348623157e+308]},"properties":{"OID_":0,"Name":"清洁能源供水实验示范区2017","FolderPath":"OvitalMap_20220925_230719/内蒙2209","SymbolID":0,"AltMode":-1,"Base":0,"TimeSpan":0,"TimeStamp":0,"BeginTime":"","EndTime":"","Snippet":"","PopupInfo":"","HasLabel":-1,"LabelID":0}},
{"type":"Feature","geometry":{"type":"Point","coordinates":[111.20984405000007,41.35142583000004,0,-1.7976931348623157e+308]},"properties":{"OID_":0,"Name":"风洞","FolderPath":"OvitalMap_20220925_230719/内蒙2209","SymbolID":0,"AltMode":-1,"Base":0,"TimeSpan":0,"TimeStamp":0,"BeginTime":"","EndTime":"","Snippet":"","PopupInfo":"","HasLabel":-1,"LabelID":0}},
{"type":"Feature","geometry":{"type":"Point","coordinates":[111.20936394000006,41.35175805000006,0,-1.7976931348623157e+308]},"properties":{"OID_":0,"Name":"沙棘","FolderPath":"OvitalMap_20220925_230719/内蒙2209","SymbolID":0,"AltMode":-1,"Base":0,"TimeSpan":0,"TimeStamp":0,"BeginTime":"","EndTime":"","Snippet":"","PopupInfo":"","HasLabel":-1,"LabelID":0}},
{"type":"Feature","geometry":{"type":"Point","coordinates":[111.21027589000005,41.351073470000074,0,-1.7976931348623157e+308]},"properties":{"OID_":0,"Name":"巨大沙棘","FolderPath":"OvitalMap_20220925_230719/内蒙2209","SymbolID":0,"AltMode":-1,"Base":0,"TimeSpan":0,"TimeStamp":0,"BeginTime":"","EndTime":"","Snippet":"","PopupInfo":"","HasLabel":-1,"LabelID":0}},
{"type":"Feature","geometry":{"type":"Point","coordinates":[110.03737990000008,40.05345077000004,9624,-1.7976931348623157e+308]},"properties":{"OID_":0,"Name":"2022-09-24 10:29:22","FolderPath":"OvitalMap_20220925_230719/内蒙2209","SymbolID":0,"AltMode":0,"Base":0,"TimeSpan":0,"TimeStamp":0,"BeginTime":"","EndTime":"","Snippet":"","PopupInfo":"","HasLabel":-1,"LabelID":0}},
{"type":"Feature","geometry":{"type":"Point","coordinates":[111.20815937000003,41.35261212000006,0,-1.7976931348623157e+308]},"properties":{"OID_":0,"Name":"近地表风蚀过程观测2008","FolderPath":"OvitalMap_20220925_230719/内蒙2209","SymbolID":0,"AltMode":-1,"Base":0,"TimeSpan":0,"TimeStamp":0,"BeginTime":"","EndTime":"","Snippet":"","PopupInfo":"","HasLabel":-1,"LabelID":0}},
{"type":"Feature","geometry":{"type":"Point","coordinates":[111.20793119000007,41.35245787000008,0,-1.7976931348623157e+308]},"properties":{"OID_":0,"Name":"风蚀监控点","FolderPath":"OvitalMap_20220925_230719/内蒙2209","SymbolID":0,"AltMode":-1,"Base":0,"TimeSpan":0,"TimeStamp":0,"BeginTime":"","EndTime":"","Snippet":"","PopupInfo":"","HasLabel":-1,"LabelID":0}},
{"type":"Feature","geometry":{"type":"Point","coordinates":[108.74591697000005,40.759576260000074,9547,-1.7976931348623157e+308]},"properties":{"OID_":0,"Name":"乌梁素海","FolderPath":"OvitalMap_20220925_230719/内蒙2209","SymbolID":0,"AltMode":0,"Base":0,"TimeSpan":0,"TimeStamp":0,"BeginTime":"","EndTime":"","Snippet":"","PopupInfo":"","HasLabel":-1,"LabelID":0}},
{"type":"Feature","geometry":{"type":"Point","coordinates":[108.64739921000006,40.72942249000005,0,-1.7976931348623157e+308]},"properties":{"OID_":0,"Name":"","FolderPath":"OvitalMap_20220925_230719/内蒙2209","SymbolID":0,"AltMode":-1,"Base":0,"TimeSpan":0,"TimeStamp":0,"BeginTime":"","EndTime":"","Snippet":"","PopupInfo":"","HasLabel":-1,"LabelID":0}},
{"type":"Feature","geometry":{"type":"Point","coordinates":[110.03665924000006,40.051796410000065,0,-1.7976931348623157e+308]},"properties":{"OID_":0,"Name":"达拉特旗水土保持监测站","FolderPath":"OvitalMap_20220925_230719/内蒙2209","SymbolID":0,"AltMode":-1,"Base":0,"TimeSpan":0,"TimeStamp":0,"BeginTime":"","EndTime":"","Snippet":"","PopupInfo":"","HasLabel":-1,"LabelID":0}},
{"type":"Feature","geometry":{"type":"Point","coordinates":[109.53757524000008,40.01632549000004,0,-1.7976931348623157e+308]},"properties":{"OID_":0,"Name":"淤地坝","FolderPath":"OvitalMap_20220925_230719/内蒙2209","SymbolID":0,"AltMode":-1,"Base":0,"TimeSpan":0,"TimeStamp":0,"BeginTime":"","EndTime":"","Snippet":"","PopupInfo":"","HasLabel":-1,"LabelID":0}},
{"type":"Feature","geometry":{"type":"Point","coordinates":[110.60078144000005,39.796469040000034,0,-1.7976931348623157e+308]},"properties":{"OID_":0,"Name":"","FolderPath":"OvitalMap_20220925_230719/内蒙2209","SymbolID":0,"AltMode":-1,"Base":0,"TimeSpan":0,"TimeStamp":0,"BeginTime":"","EndTime":"","Snippet":"","PopupInfo":"","HasLabel":-1,"LabelID":0}},
{"type":"Feature","geometry":{"type":"Point","coordinates":[110.59636116000007,39.77476949000004,0,-1.7976931348623157e+308]},"properties":{"OID_":0,"Name":"鄂尔多斯水土保持科技示范园","FolderPath":"OvitalMap_20220925_230719/内蒙2209","SymbolID":0,"AltMode":-1,"Base":0,"TimeSpan":0,"TimeStamp":0,"BeginTime":"","EndTime":"","Snippet":"","PopupInfo":"","HasLabel":-1,"LabelID":0}},
{"type":"Feature","geometry":{"type":"Point","coordinates":[111.05392456000004,39.87918108000008,0,-1.7976931348623157e+308]},"properties":{"OID_":0,"Name":"西黑岱流域油松林","FolderPath":"OvitalMap_20220925_230719/内蒙2209","SymbolID":0,"AltMode":-1,"Base":0,"TimeSpan":0,"TimeStamp":0,"BeginTime":"","EndTime":"","Snippet":"","PopupInfo":"","HasLabel":-1,"LabelID":0}},
{"type":"Feature","geometry":{"type":"Point","coordinates":[111.20918155000004,41.352088250000065,0,-1.7976931348623157e+308]},"properties":{"OID_":0,"Name":"阴山北麓国家野外站","FolderPath":"OvitalMap_20220925_230719/内蒙2209","SymbolID":0,"AltMode":-1,"Base":0,"TimeSpan":0,"TimeStamp":0,"BeginTime":"","EndTime":"","Snippet":"","PopupInfo":"","HasLabel":-1,"LabelID":0}}
]}